{
	"pois": [
		{
			"pid": "",
			"longitude": "116.31067",
			"latitude": "39.98445",
			"name": "理想国际大厦(东门)",
			"city_name": "北京",
			"province_name": "北京",
			"address": "北四环西路58号",
			"telephone": "",
			"category": "120201",
			"navigator": "",
			"pic_url": ""
		},
		{
			"pid": "",
			"longitude": "120.31283",
			"latitude": "30.41025",
			"name": "理想国际大厦",
			"city_name": "杭州",
			"province_name": "浙江省",
			"address": "世纪大道168号",
			"telephone": "0571-89267888;0571-86137000",
			"category": "120201",
			"navigator": "",
			"pic_url": ""
		},
		{
			"pid": "",
			"longitude": "120.30897",
			"latitude": "30.40836",
			"name": "理想国际大厦",
			"city_name": "杭州",
			"province_name": "浙江省",
			"address": "",
			"telephone": "",
			"category": "120201",
			"navigator": "",
			"pic_url": ""
		},
		{
			"pid": "P010A0075SV",
			"longitude": "116.30987",
			"latitude": "39.98437",
			"name": "理想国际大厦",
			"city_name": "北京",
			"province_name": "北京",
			"address": "北四环西路58",
			"telephone": "010-82625868",
			"category": "120201",
			"navigator": "",
			"pic_url": ""
		},
		{
			"pid": "P010A005K5O",
			"longitude": "116.30985",
			"latitude": "39.98412",
			"name": "理想国际大厦停车场",
			"city_name": "北京",
			"province_name": "北京",
			"address": "北四环西路58",
			"telephone": "",
			"category": "150901",
			"navigator": "",
			"pic_url": ""
		},
		{
			"pid": "P010A000F4K",
			"longitude": "116.30999",
			"latitude": "39.98435",
			"name": "理想国际大厦物业管理处",
			"city_name": "北京",
			"province_name": "北京",
			"address": "北四环西路58号理想国际大厦B1层",
			"telephone": "",
			"category": "170200",
			"navigator": "",
			"pic_url": ""
		},
		{
			"pid": "P010A000GCK",
			"longitude": "116.30992",
			"latitude": "39.98417",
			"name": "理想国际大厦(南门)",
			"city_name": "北京",
			"province_name": "北京",
			"address": "北四环西路58",
			"telephone": "",
			"category": "120201",
			"navigator": "",
			"pic_url": ""
		},
		{
			"pid": "",
			"longitude": "116.30987",
			"latitude": "39.98438",
			"name": "中石油中铁油品销售有限公司(理想国际大厦北)",
			"city_name": "北京",
			"province_name": "北京",
			"address": "北四环西路58号理想国际大厦811-812",
			"telephone": "",
			"category": "170200",
			"navigator": "",
			"pic_url": ""
		},
		{
			"pid": "",
			"longitude": "116.30987",
			"latitude": "39.98438",
			"name": "北京佳联房地产经纪有限公司(理想国际大厦北)",
			"city_name": "北京",
			"province_name": "北京",
			"address": "北四环西路58号理想国际大厦514",
			"telephone": "",
			"category": "170200",
			"navigator": "",
			"pic_url": ""
		},
		{
			"pid": "",
			"longitude": "116.30987",
			"latitude": "39.98438",
			"name": "三个贵州人(理想国际大厦西)",
			"city_name": "北京",
			"province_name": "北京",
			"address": "北四环西路58",
			"telephone": "010-82607678",
			"category": "50114",
			"navigator": "",
			"pic_url": ""
		}
	],
	"total_number": "325"
}
